{
"type": "FeatureCollection",
"features": [
{ "type": "Feature", "id": 1, "properties": { "MLS#": 10069305, "Type": "RES", "Address": "5623 SE FRANCIS ST", "Area": 143, "List Agent": "Holly Courtright", "List Date": "08\/23\/10", "Status": "SLD", "Price Current": "$125,000", "Status Date": "10\/14\/10", "Exp Date": null, "Selling Agent": "Margaret Gerlt", "AddressFull": "5623 SE FRANCIS ST near Portland, OR", "lon": -122.604703, "lat": 45.494962 }, "geometry": { "type": "Point", "coordinates": [ -122.604703, 45.494962 ] } },
{ "type": "Feature", "id": 2, "properties": { "MLS#": 10082263, "Type": "RES", "Address": "3805 SE ALDER ST", "Area": 143, "List Agent": "Leah Dowling", "List Date": "10\/18\/10", "Status": "SLD", "Price Current": "$449,999", "Status Date": "12\/02\/10", "Exp Date": null, "Selling Agent": "Margaret Gerlt", "AddressFull": "3805 SE ALDER ST near Portland, OR", "lon": -122.624231, "lat": 45.5180445 }, "geometry": { "type": "Point", "coordinates": [ -122.624231, 45.518044499999988 ] } },
{ "type": "Feature", "id": 3, "properties": { "MLS#": 11546677, "Type": "RES", "Address": "704 NE 80TH AVE", "Area": 142, "List Agent": "Darryl Bodle", "List Date": "01\/30\/11", "Status": "SLD", "Price Current": "$178,900", "Status Date": "04\/29\/11", "Exp Date": null, "Selling Agent": "Margaret Gerlt", "AddressFull": "704 NE 80TH AVE near Portland, OR", "lon": -122.5812123, "lat": 45.5278558 }, "geometry": { "type": "Point", "coordinates": [ -122.5812123, 45.5278558 ] } },
{ "type": "Feature", "id": 4, "properties": { "MLS#": 11258166, "Type": "RES", "Address": "2103 NE 13TH AVE", "Area": 142, "List Agent": "Gene Moreland", "List Date": "04\/05\/11", "Status": "SLD", "Price Current": "$519,000", "Status Date": "05\/19\/11", "Exp Date": null, "Selling Agent": "Margaret Gerlt", "AddressFull": "2103 NE 13TH AVE near Portland, OR", "lon": -122.6528851, "lat": 45.5376097 }, "geometry": { "type": "Point", "coordinates": [ -122.6528851, 45.5376097 ] } },
{ "type": "Feature", "id": 5, "properties": { "MLS#": 11451277, "Type": "RES", "Address": "7509 SE RAYMOND ST", "Area": 143, "List Agent": "Jan Probstfield", "List Date": "05\/13\/11", "Status": "SLD", "Price Current": "$147,400", "Status Date": "07\/13\/11", "Exp Date": null, "Selling Agent": "Margaret Gerlt", "AddressFull": "7509 SE RAYMOND ST near Portland, OR", "lon": -122.5857957, "lat": 45.486718 }, "geometry": { "type": "Point", "coordinates": [ -122.5857957, 45.486718 ] } },
{ "type": "Feature", "id": 6, "properties": { "MLS#": 11039404, "Type": "RES", "Address": "9505 SE 55TH AVE", "Area": 145, "List Agent": "Thomas Wideman", "List Date": "04\/01\/11", "Status": "SLD", "Price Current": "$184,250", "Status Date": "09\/01\/11", "Exp Date": null, "Selling Agent": "Margaret Gerlt", "AddressFull": "9505 SE 55TH AVE near Portland, OR", "lon": -122.60749, "lat": 45.454273 }, "geometry": { "type": "Point", "coordinates": [ -122.60749, 45.454273 ] } },
{ "type": "Feature", "id": 7, "properties": { "MLS#": 11183197, "Type": "RES", "Address": "7676 N MISSISSIPPI AVE", "Area": 141, "List Agent": "Brian Bowman", "List Date": "07\/15\/11", "Status": "SLD", "Price Current": "$189,900", "Status Date": "09\/09\/11", "Exp Date": null, "Selling Agent": "Margaret Gerlt", "AddressFull": "7676 N MISSISSIPPI AVE near Portland, OR", "lon": -122.676015, "lat": 45.579049 }, "geometry": { "type": "Point", "coordinates": [ -122.676015, 45.579049 ] } },
{ "type": "Feature", "id": 8, "properties": { "MLS#": 11500796, "Type": "RES", "Address": "5009 NE BROADWAY ST", "Area": 142, "List Agent": "Nancy Wheeler", "List Date": "07\/08\/11", "Status": "SLD", "Price Current": "$349,000", "Status Date": "09\/15\/11", "Exp Date": null, "Selling Agent": "Margaret Gerlt", "AddressFull": "5009 NE BROADWAY ST near Portland, OR", "lon": -122.6116335, "lat": 45.5352836 }, "geometry": { "type": "Point", "coordinates": [ -122.6116335, 45.5352836 ] } },
{ "type": "Feature", "id": 9, "properties": { "MLS#": 11243684, "Type": "RES", "Address": "12619 NE MULTNOMAH ST", "Area": 142, "List Agent": "Scott Besaw", "List Date": "08\/03\/11", "Status": "SLD", "Price Current": "$174,900", "Status Date": "09\/20\/11", "Exp Date": null, "Selling Agent": "Margaret Gerlt", "AddressFull": "12619 NE MULTNOMAH ST near Portland, OR", "lon": -122.5332692, "lat": 45.5315995 }, "geometry": { "type": "Point", "coordinates": [ -122.5332692, 45.5315995 ] } },
{ "type": "Feature", "id": 10, "properties": { "MLS#": 10066303, "Type": "RES", "Address": "5739 SE WOODWARD ST", "Area": 143, "List Agent": "Risa Davis", "List Date": "03\/08\/10", "Status": "SLD", "Price Current": "$230,600", "Status Date": "09\/21\/11", "Exp Date": null, "Selling Agent": "Margaret Gerlt", "AddressFull": "5739 SE WOODWARD ST near Portland, OR", "lon": -122.603376, "lat": 45.5015704 }, "geometry": { "type": "Point", "coordinates": [ -122.603376, 45.5015704 ] } },
{ "type": "Feature", "id": 11, "properties": { "MLS#": 11093807, "Type": "RES", "Address": "4922 SE GLADSTONE ST", "Area": 143, "List Agent": "Krista Meili", "List Date": "08\/02\/11", "Status": "SLD", "Price Current": "$280,000", "Status Date": "10\/05\/11", "Exp Date": null, "Selling Agent": "Margaret Gerlt", "AddressFull": "4922 SE GLADSTONE ST near Portland, OR", "lon": -122.611567, "lat": 45.493285 }, "geometry": { "type": "Point", "coordinates": [ -122.611567, 45.493285 ] } },
{ "type": "Feature", "id": 12, "properties": { "MLS#": 11387107, "Type": "RES", "Address": "1544 NE 76TH AVE", "Area": 142, "List Agent": "Tracey Hicks", "List Date": "06\/03\/11", "Status": "SLD", "Price Current": "$221,800", "Status Date": "10\/19\/11", "Exp Date": null, "Selling Agent": "Margaret Gerlt", "AddressFull": "1544 NE 76TH AVE near Portland, OR", "lon": -122.5848929, "lat": 45.5342836 }, "geometry": { "type": "Point", "coordinates": [ -122.5848929, 45.534283599999988 ] } },
{ "type": "Feature", "id": 13, "properties": { "MLS#": 11667761, "Type": "RES", "Address": "4611 SE 84TH AVE", "Area": 143, "List Agent": "Millie Kitzmiller", "List Date": "08\/10\/11", "Status": "SLD", "Price Current": "$140,000", "Status Date": "10\/21\/11", "Exp Date": null, "Selling Agent": "Margaret Gerlt", "AddressFull": "4611 SE 84TH AVE near Portland, OR", "lon": -122.5770433, "lat": 45.4889546 }, "geometry": { "type": "Point", "coordinates": [ -122.5770433, 45.4889546 ] } },
{ "type": "Feature", "id": 14, "properties": { "MLS#": 11318906, "Type": "RES", "Address": "5736 SE MALL ST", "Area": 143, "List Agent": "Joel Hamley", "List Date": "07\/07\/11", "Status": "SLD", "Price Current": "$220,000", "Status Date": "10\/28\/11", "Exp Date": null, "Selling Agent": "Margaret Gerlt", "AddressFull": "5736 SE MALL ST near Portland, OR", "lon": -122.603847, "lat": 45.491069 }, "geometry": { "type": "Point", "coordinates": [ -122.603847, 45.491069 ] } },
{ "type": "Feature", "id": 15, "properties": { "MLS#": 11504371, "Type": "RES", "Address": "4527 SE 49TH AVE", "Area": 143, "List Agent": "Joshua Svaren", "List Date": "03\/01\/11", "Status": "SLD", "Price Current": "$177,500", "Status Date": "12\/02\/11", "Exp Date": null, "Selling Agent": "Margaret Gerlt", "AddressFull": "4527 SE 49TH AVE near Portland, OR", "lon": -122.612234, "lat": 45.489736 }, "geometry": { "type": "Point", "coordinates": [ -122.612234, 45.489736 ] } },
{ "type": "Feature", "id": 16, "properties": { "MLS#": 11045931, "Type": "RES", "Address": "3531 SE 11TH AVE", "Area": 143, "List Agent": "Dean Sunada", "List Date": "09\/15\/11", "Status": "SLD", "Price Current": "$249,900", "Status Date": "01\/04\/12", "Exp Date": null, "Selling Agent": "Margaret Gerlt", "AddressFull": "3531 SE 11TH AVE near Portland, OR", "lon": -122.655111, "lat": 45.497036 }, "geometry": { "type": "Point", "coordinates": [ -122.655111, 45.497036 ] } },
{ "type": "Feature", "id": 17, "properties": { "MLS#": 11031143, "Type": "RES", "Address": "7814 SE KNIGHT ST", "Area": 143, "List Agent": "Cary Smith", "List Date": "07\/21\/11", "Status": "SLD", "Price Current": "$207,000", "Status Date": "02\/01\/12", "Exp Date": null, "Selling Agent": "Margaret Gerlt", "AddressFull": "7814 SE KNIGHT ST near Portland, OR", "lon": -122.5829708, "lat": 45.4801221 }, "geometry": { "type": "Point", "coordinates": [ -122.5829708, 45.4801221 ] } },
{ "type": "Feature", "id": 18, "properties": { "MLS#": 11283934, "Type": "RES", "Address": "4225 NE 21ST AVE", "Area": 142, "List Agent": "Andrew Misk", "List Date": "01\/17\/12", "Status": "SLD", "Price Current": "$375,000", "Status Date": "04\/03\/12", "Exp Date": null, "Selling Agent": "Margaret Gerlt", "AddressFull": "4225 NE 21ST AVE near Portland, OR", "lon": -122.6441474, "lat": 45.5540687 }, "geometry": { "type": "Point", "coordinates": [ -122.6441474, 45.554068699999988 ] } },
{ "type": "Feature", "id": 19, "properties": { "MLS#": 11108636, "Type": "RES", "Address": "4505 SE HAIG ST", "Area": 143, "List Agent": "Marie Picard", "List Date": "11\/14\/11", "Status": "SLD", "Price Current": "$310,000", "Status Date": "04\/04\/12", "Exp Date": null, "Selling Agent": "Margaret Gerlt", "AddressFull": "4505 SE HAIG ST near Portland, OR", "lon": -122.6161379, "lat": 45.4984028 }, "geometry": { "type": "Point", "coordinates": [ -122.6161379, 45.4984028 ] } },
{ "type": "Feature", "id": 20, "properties": { "MLS#": 12358893, "Type": "RES", "Address": "2318 SE TIBBETTS ST", "Area": 143, "List Agent": "Matthew Ricker", "List Date": "03\/24\/12", "Status": "SLD", "Price Current": "$275,000", "Status Date": "05\/07\/12", "Exp Date": null, "Selling Agent": "Margaret Gerlt", "AddressFull": "2318 SE TIBBETTS ST near Portland, OR", "lon": -122.6421367, "lat": 45.5003337 }, "geometry": { "type": "Point", "coordinates": [ -122.6421367, 45.5003337 ] } },
{ "type": "Feature", "id": 21, "properties": { "MLS#": 12071032, "Type": "RES", "Address": "1032 NE 76TH AVE", "Area": 142, "List Agent": "Emilio Fontana", "List Date": "02\/13\/12", "Status": "SLD", "Price Current": "$141,000", "Status Date": "06\/01\/12", "Exp Date": null, "Selling Agent": "Margaret Gerlt", "AddressFull": "1032 NE 76TH AVE near Portland, OR", "lon": -122.584418, "lat": 45.5302429 }, "geometry": { "type": "Point", "coordinates": [ -122.584418, 45.5302429 ] } },
{ "type": "Feature", "id": 22, "properties": { "MLS#": 12109942, "Type": "RES", "Address": "8735 N WILLAMETTE BLVD", "Area": 141, "List Agent": "Scott Crowe", "List Date": "04\/09\/12", "Status": "SLD", "Price Current": "$343,000", "Status Date": "06\/07\/12", "Exp Date": null, "Selling Agent": "Margaret Gerlt", "AddressFull": "8735 N WILLAMETTE BLVD near Portland, OR", "lon": -122.757956, "lat": 45.589926 }, "geometry": { "type": "Point", "coordinates": [ -122.757956, 45.589926 ] } },
{ "type": "Feature", "id": 23, "properties": { "MLS#": 12061005, "Type": "RES", "Address": "9509 N WOOLSEY AVE", "Area": 141, "List Agent": "Whitney Petersen", "List Date": "04\/23\/12", "Status": "SLD", "Price Current": "$209,950", "Status Date": "06\/14\/12", "Exp Date": null, "Selling Agent": "Margaret Gerlt", "AddressFull": "9509 N WOOLSEY AVE near Portland, OR", "lon": -122.714897, "lat": 45.5915859 }, "geometry": { "type": "Point", "coordinates": [ -122.714897, 45.5915859 ] } },
{ "type": "Feature", "id": 24, "properties": { "MLS#": 12599773, "Type": "RES", "Address": "4623 SE TAYLOR ST", "Area": 143, "List Agent": "Carolyn MacMurray", "List Date": "05\/04\/12", "Status": "SLD", "Price Current": "$407,000", "Status Date": "06\/20\/12", "Exp Date": null, "Selling Agent": "Margaret Gerlt", "AddressFull": "4623 SE TAYLOR ST near Portland, OR", "lon": -122.6146617, "lat": 45.5154776 }, "geometry": { "type": "Point", "coordinates": [ -122.6146617, 45.5154776 ] } },
{ "type": "Feature", "id": 25, "properties": { "MLS#": 12191638, "Type": "RES", "Address": "1910 SE 48TH AVE", "Area": 143, "List Agent": "Bob Allen", "List Date": "07\/02\/12", "Status": "SLD", "Price Current": "$290,850", "Status Date": "07\/19\/12", "Exp Date": null, "Selling Agent": "Margaret Gerlt", "AddressFull": "1910 SE 48TH AVE near Portland, OR", "lon": -122.6128444, "lat": 45.5091299 }, "geometry": { "type": "Point", "coordinates": [ -122.6128444, 45.5091299 ] } },
{ "type": "Feature", "id": 26, "properties": { "MLS#": 12038547, "Type": "RES", "Address": "2432 N SUMNER ST", "Area": 141, "List Agent": "Tracey Henkels", "List Date": "05\/23\/12", "Status": "SLD", "Price Current": "$325,000", "Status Date": "07\/20\/12", "Exp Date": null, "Selling Agent": "Margaret Gerlt", "AddressFull": "2432 N SUMNER ST near Portland, OR", "lon": -122.6923443, "lat": 45.5603582 }, "geometry": { "type": "Point", "coordinates": [ -122.6923443, 45.5603582 ] } },
{ "type": "Feature", "id": 27, "properties": { "MLS#": 12380607, "Type": "RES", "Address": "3229 SE 57TH AVE", "Area": 143, "List Agent": "Aimee Virnig", "List Date": "05\/28\/12", "Status": "SLD", "Price Current": "$366,000", "Status Date": "07\/20\/12", "Exp Date": null, "Selling Agent": "Margaret Gerlt", "AddressFull": "3229 SE 57TH AVE near Portland, OR", "lon": -122.6042914, "lat": 45.4991922 }, "geometry": { "type": "Point", "coordinates": [ -122.6042914, 45.4991922 ] } },
{ "type": "Feature", "id": 28, "properties": { "MLS#": 12050387, "Type": "RES", "Address": "12375 SE SCHERRER ST", "Area": 145, "List Agent": "Craig Reger", "List Date": "04\/06\/12", "Status": "SLD", "Price Current": "$449,600", "Status Date": "07\/27\/12", "Exp Date": null, "Selling Agent": "Margaret Gerlt", "AddressFull": "12375 SE SCHERRER ST near Portland, OR", "lon": -122.5156021, "lat": 45.4331648 }, "geometry": { "type": "Point", "coordinates": [ -122.5156021, 45.4331648 ] } },
{ "type": "Feature", "id": 29, "properties": { "MLS#": 12465412, "Type": "RES", "Address": "9616 N KALMAR ST", "Area": 141, "List Agent": "Sue Ann Bearden", "List Date": "05\/25\/12", "Status": "SLD", "Price Current": "$146,000", "Status Date": "09\/20\/12", "Exp Date": null, "Selling Agent": "Margaret Gerlt", "AddressFull": "9616 N KALMAR ST near Portland, OR", "lon": -122.7513122, "lat": 45.5995311 }, "geometry": { "type": "Point", "coordinates": [ -122.7513122, 45.5995311 ] } },
{ "type": "Feature", "id": 30, "properties": { "MLS#": 12363309, "Type": "RES", "Address": "11406 SW IRONWOOD LOOP", "Area": 151, "List Agent": "Heather Adams", "List Date": "06\/22\/12", "Status": "SLD", "Price Current": "$205,000", "Status Date": "10\/12\/12", "Exp Date": null, "Selling Agent": "Margaret Gerlt", "AddressFull": "11406 SW IRONWOOD LOOP near Portland, OR", "lon": -122.793097, "lat": 45.4434783 }, "geometry": { "type": "Point", "coordinates": [ -122.793097, 45.4434783 ] } },
{ "type": "Feature", "id": 31, "properties": { "MLS#": 12033871, "Type": "RES", "Address": "3719 SE 63RD AVE", "Area": 143, "List Agent": "Mo Ierulli", "List Date": "08\/29\/12", "Status": "SLD", "Price Current": "$170,000", "Status Date": "10\/19\/12", "Exp Date": null, "Selling Agent": "Margaret Gerlt", "AddressFull": "3719 SE 63RD AVE near Portland, OR", "lon": -122.5986526, "lat": 45.4953716 }, "geometry": { "type": "Point", "coordinates": [ -122.5986526, 45.4953716 ] } },
{ "type": "Feature", "id": 32, "properties": { "MLS#": 12368897, "Type": "RES", "Address": "6729 SE KNIGHT ST", "Area": 143, "List Agent": "Linda Skeele", "List Date": "09\/24\/12", "Status": "SLD", "Price Current": "$181,000", "Status Date": "11\/08\/12", "Exp Date": null, "Selling Agent": "Margaret Gerlt", "AddressFull": "6729 SE KNIGHT ST near Portland, OR", "lon": -122.593622, "lat": 45.480308 }, "geometry": { "type": "Point", "coordinates": [ -122.593622, 45.480308 ] } },
{ "type": "Feature", "id": 33, "properties": { "MLS#": 12388354, "Type": "RES", "Address": "4311 SE 45TH AVE", "Area": 143, "List Agent": "Hope Beraka", "List Date": "09\/24\/12", "Status": "SLD", "Price Current": "$319,000", "Status Date": "11\/15\/12", "Exp Date": null, "Selling Agent": "Margaret Gerlt", "AddressFull": "4311 SE 45TH AVE near Portland, OR", "lon": -122.616141, "lat": 45.491682 }, "geometry": { "type": "Point", "coordinates": [ -122.616141, 45.491682 ] } },
{ "type": "Feature", "id": 34, "properties": { "MLS#": 12103938, "Type": "RES", "Address": "2560 N WILLIS BLVD", "Area": 141, "List Agent": "Matthew Andrews", "List Date": "07\/27\/12", "Status": "SLD", "Price Current": "$280,000", "Status Date": "11\/20\/12", "Exp Date": null, "Selling Agent": "Margaret Gerlt", "AddressFull": "2560 N WILLIS BLVD near Portland, OR", "lon": -122.6933841, "lat": 45.5836858 }, "geometry": { "type": "Point", "coordinates": [ -122.6933841, 45.5836858 ] } },
{ "type": "Feature", "id": 35, "properties": { "MLS#": 12305106, "Type": "RES", "Address": "4202 SE WOODWARD ST", "Area": 143, "List Agent": "Jean Trostel", "List Date": "10\/18\/12", "Status": "SLD", "Price Current": "$325,000", "Status Date": "12\/10\/12", "Exp Date": null, "Selling Agent": "Margaret Gerlt", "AddressFull": "4202 SE WOODWARD ST near Portland, OR", "lon": -122.618952, "lat": 45.5017319 }, "geometry": { "type": "Point", "coordinates": [ -122.618952, 45.5017319 ] } },
{ "type": "Feature", "id": 36, "properties": { "MLS#": 12245207, "Type": "RES", "Address": "5729 SE 46TH AVE", "Area": 143, "List Agent": "Scott Besaw", "List Date": "08\/18\/12", "Status": "SLD", "Price Current": "$289,000", "Status Date": "12\/19\/12", "Exp Date": null, "Selling Agent": "Margaret Gerlt", "AddressFull": "5729 SE 46TH AVE near Portland, OR", "lon": -122.6158182, "lat": 45.4807982 }, "geometry": { "type": "Point", "coordinates": [ -122.6158182, 45.4807982 ] } },
{ "type": "Feature", "id": 37, "properties": { "MLS#": 13316113, "Type": "RES", "Address": "7208 SW 34TH AVE", "Area": 148, "List Agent": "Steven Strode", "List Date": "01\/24\/13", "Status": "SLD", "Price Current": "$555,000", "Status Date": "02\/19\/13", "Exp Date": null, "Selling Agent": "Margaret Gerlt", "AddressFull": "7208 SW 34TH AVE near Portland, OR", "lon": -122.7113061, "lat": 45.4723377 }, "geometry": { "type": "Point", "coordinates": [ -122.7113061, 45.4723377 ] } },
{ "type": "Feature", "id": 38, "properties": { "MLS#": 12419508, "Type": "RES", "Address": "1206 NE 79TH AVE", "Area": 142, "List Agent": "Heather Brymer", "List Date": "12\/17\/12", "Status": "SLD", "Price Current": "$278,000", "Status Date": "02\/28\/13", "Exp Date": null, "Selling Agent": "Margaret Gerlt", "AddressFull": "1206 NE 79TH AVE near Portland, OR", "lon": -122.5816339, "lat": 45.5317374 }, "geometry": { "type": "Point", "coordinates": [ -122.5816339, 45.5317374 ] } },
{ "type": "Feature", "id": 39, "properties": { "MLS#": 12395688, "Type": "RES", "Address": "8440 N HENDRICKS ST", "Area": 141, "List Agent": "Fred Montgomery", "List Date": "11\/13\/12", "Status": "SLD", "Price Current": "$138,000", "Status Date": "04\/01\/13", "Exp Date": null, "Selling Agent": "Margaret Gerlt", "AddressFull": "8440 N HENDRICKS ST near Portland, OR", "lon": -122.7478956, "lat": 45.600486 }, "geometry": { "type": "Point", "coordinates": [ -122.7478956, 45.600486 ] } },
{ "type": "Feature", "id": 40, "properties": { "MLS#": 13434932, "Type": "RES", "Address": "1553 N SIMPSON ST", "Area": 141, "List Agent": "Johanna Keith", "List Date": "04\/08\/13", "Status": "SLD", "Price Current": "$317,000", "Status Date": "05\/24\/13", "Exp Date": null, "Selling Agent": "Margaret Gerlt", "AddressFull": "1553 N SIMPSON ST near Portland, OR", "lon": -122.6834122, "lat": 45.565706 }, "geometry": { "type": "Point", "coordinates": [ -122.6834122, 45.565706 ] } },
{ "type": "Feature", "id": 41, "properties": { "MLS#": 13683664, "Type": "RES", "Address": "915 SE 35TH AVE", "Area": 143, "List Agent": "Diana Ferguson", "List Date": "04\/20\/13", "Status": "SLD", "Price Current": "$272,500", "Status Date": "06\/03\/13", "Exp Date": null, "Selling Agent": "Margaret Gerlt", "AddressFull": "915 SE 35TH AVE near Portland, OR", "lon": -122.6285, "lat": 45.5161998 }, "geometry": { "type": "Point", "coordinates": [ -122.6285, 45.5161998 ] } },
{ "type": "Feature", "id": 42, "properties": { "MLS#": 13624498, "Type": "RES", "Address": "16136 SW MASON LN", "Area": 150, "List Agent": "Lincoln Reichen", "List Date": "04\/19\/13", "Status": "SLD", "Price Current": "$189,000", "Status Date": "06\/07\/13", "Exp Date": null, "Selling Agent": "Margaret Gerlt", "AddressFull": "16136 SW MASON LN near Portland, OR", "lon": -122.842974, "lat": 45.511473 }, "geometry": { "type": "Point", "coordinates": [ -122.842974, 45.511473 ] } },
{ "type": "Feature", "id": 43, "properties": { "MLS#": 13195304, "Type": "RES", "Address": "2805 NE 41ST AVE", "Area": 142, "List Agent": "Jeff Capen", "List Date": "04\/26\/13", "Status": "SLD", "Price Current": "$795,000", "Status Date": "06\/14\/13", "Exp Date": null, "Selling Agent": "Margaret Gerlt", "AddressFull": "2805 NE 41ST AVE near Portland, OR", "lon": -122.621246, "lat": 45.542539 }, "geometry": { "type": "Point", "coordinates": [ -122.621246, 45.542539 ] } },
{ "type": "Feature", "id": 44, "properties": { "MLS#": 13625215, "Type": "RES", "Address": "3604 SE HAIG ST", "Area": 143, "List Agent": "Steve Roesch", "List Date": "04\/19\/13", "Status": "SLD", "Price Current": "$430,000", "Status Date": "06\/27\/13", "Exp Date": null, "Selling Agent": "Margaret Gerlt", "AddressFull": "3604 SE HAIG ST near Portland, OR", "lon": -122.625999, "lat": 45.49809 }, "geometry": { "type": "Point", "coordinates": [ -122.625999, 45.49809 ] } },
{ "type": "Feature", "id": 45, "properties": { "MLS#": 13179375, "Type": "RES", "Address": "1819 SE LADD AVE", "Area": 143, "List Agent": "Erica Dagle", "List Date": "04\/01\/13", "Status": "SLD", "Price Current": "$850,000", "Status Date": "07\/02\/13", "Exp Date": null, "Selling Agent": "Margaret Gerlt", "AddressFull": "1819 SE LADD AVE near Portland, OR", "lon": -122.6513501, "lat": 45.5097769 }, "geometry": { "type": "Point", "coordinates": [ -122.6513501, 45.5097769 ] } },
{ "type": "Feature", "id": 46, "properties": { "MLS#": 13002866, "Type": "RES", "Address": "2239 SE 34th AVE", "Area": 143, "List Agent": "Amanda Andruss", "List Date": "05\/03\/13", "Status": "SLD", "Price Current": "$680,952", "Status Date": "08\/05\/13", "Exp Date": null, "Selling Agent": "Margaret Gerlt", "AddressFull": "2239 SE 34th AVE near Portland, OR", "lon": -122.6298226, "lat": 45.5067238 }, "geometry": { "type": "Point", "coordinates": [ -122.6298226, 45.5067238 ] } },
{ "type": "Feature", "id": 47, "properties": { "MLS#": 13029055, "Type": "RES", "Address": "2324 SE 45TH AVE", "Area": 143, "List Agent": "Tom Keller", "List Date": "07\/15\/13", "Status": "SLD", "Price Current": "$315,000", "Status Date": "08\/28\/13", "Exp Date": null, "Selling Agent": "Margaret Gerlt", "AddressFull": "2324 SE 45TH AVE near Portland, OR", "lon": -122.615868, "lat": 45.506264 }, "geometry": { "type": "Point", "coordinates": [ -122.615868, 45.506264 ] } },
{ "type": "Feature", "id": 48, "properties": { "MLS#": 13174834, "Type": "RES", "Address": "3439 SE DIVISION ST", "Area": 143, "List Agent": "Kelly Gebler", "List Date": "07\/22\/13", "Status": "SLD", "Price Current": "$430,000", "Status Date": "08\/30\/13", "Exp Date": null, "Selling Agent": "Margaret Gerlt", "AddressFull": "3439 SE DIVISION ST near Portland, OR", "lon": -122.628706, "lat": 45.505001 }, "geometry": { "type": "Point", "coordinates": [ -122.628706, 45.505001 ] } },
{ "type": "Feature", "id": 49, "properties": { "MLS#": 13001809, "Type": "RES", "Address": "13430 SW BRIGHTWOOD ST", "Area": 150, "List Agent": "Ben Gibson", "List Date": "07\/25\/13", "Status": "SLD", "Price Current": "$265,000", "Status Date": "09\/27\/13", "Exp Date": null, "Selling Agent": "Margaret Gerlt", "AddressFull": "13430 SW BRIGHTWOOD ST near Portland, OR", "lon": -122.8154279, "lat": 45.5038847 }, "geometry": { "type": "Point", "coordinates": [ -122.8154279, 45.5038847 ] } },
{ "type": "Feature", "id": 50, "properties": { "MLS#": 13115928, "Type": "RES", "Address": "14910 SE ARISTA DR", "Area": 145, "List Agent": "Daniel Fagan", "List Date": "09\/06\/13", "Status": "SLD", "Price Current": "$305,000", "Status Date": "11\/04\/13", "Exp Date": null, "Selling Agent": "Margaret Gerlt", "AddressFull": "14910 SE ARISTA DR near Portland, OR", "lon": -122.6412378, "lat": 45.4149383 }, "geometry": { "type": "Point", "coordinates": [ -122.6412378, 45.4149383 ] } },
{ "type": "Feature", "id": 51, "properties": { "MLS#": 13151960, "Type": "RES", "Address": "9625 SW INGLEWOOD ST", "Area": 148, "List Agent": "Sharon Fleming", "List Date": "09\/13\/13", "Status": "SLD", "Price Current": "$322,000", "Status Date": "11\/04\/13", "Exp Date": null, "Selling Agent": "Margaret Gerlt", "AddressFull": "9625 SW INGLEWOOD ST near Portland, OR", "lon": -122.7759969, "lat": 45.5042943 }, "geometry": { "type": "Point", "coordinates": [ -122.7759969, 45.5042943 ] } },
{ "type": "Feature", "id": 52, "properties": { "MLS#": 13229360, "Type": "RES", "Address": "7334 N HUDSON ST", "Area": 141, "List Agent": "Eric Hagstette", "List Date": "09\/13\/13", "Status": "SLD", "Price Current": "$170,000", "Status Date": "11\/06\/13", "Exp Date": null, "Selling Agent": "Margaret Gerlt", "AddressFull": "7334 N HUDSON ST near Portland, OR", "lon": -122.7411968, "lat": 45.5902438 }, "geometry": { "type": "Point", "coordinates": [ -122.7411968, 45.5902438 ] } },
{ "type": "Feature", "id": 53, "properties": { "MLS#": 13589158, "Type": "RES", "Address": "7334 N HUDSON ST", "Area": 141, "List Agent": "Eric Hagstette", "List Date": "09\/16\/13", "Status": "SLD", "Price Current": "$170,000", "Status Date": "11\/07\/13", "Exp Date": null, "Selling Agent": "Margaret Gerlt", "AddressFull": "7334 N HUDSON ST near Portland, OR", "lon": -122.7411968, "lat": 45.5902438 }, "geometry": { "type": "Point", "coordinates": [ -122.7411968, 45.5902438 ] } },
{ "type": "Feature", "id": 54, "properties": { "MLS#": 13173374, "Type": "RES", "Address": "3043 NE 35TH AVE", "Area": 142, "List Agent": "Adam Highton", "List Date": "10\/03\/13", "Status": "SLD", "Price Current": "$520,000", "Status Date": "11\/21\/13", "Exp Date": null, "Selling Agent": "Margaret Gerlt", "AddressFull": "3043 NE 35TH AVE near Portland, OR", "lon": -122.628942, "lat": 45.5453454 }, "geometry": { "type": "Point", "coordinates": [ -122.628942, 45.5453454 ] } },
{ "type": "Feature", "id": 55, "properties": { "MLS#": 14552284, "Type": "RES", "Address": "744 SE 114TH PL", "Area": 143, "List Agent": "Javier Alomia", "List Date": "02\/28\/14", "Status": "SLD", "Price Current": "$275,000", "Status Date": "04\/04\/14", "Exp Date": null, "Selling Agent": "Margaret Gerlt", "AddressFull": "744 SE 114TH PL near Portland, OR", "lon": -122.5456902, "lat": 45.5169904 }, "geometry": { "type": "Point", "coordinates": [ -122.5456902, 45.5169904 ] } },
{ "type": "Feature", "id": 56, "properties": { "MLS#": 14618079, "Type": "RES", "Address": "1929 SE 88TH AVE", "Area": 143, "List Agent": "Kathryn King", "List Date": "03\/09\/14", "Status": "SLD", "Price Current": "$225,000", "Status Date": "04\/08\/14", "Exp Date": null, "Selling Agent": "Margaret Gerlt", "AddressFull": "1929 SE 88TH AVE near Portland, OR", "lon": -122.5735643, "lat": 45.5087228 }, "geometry": { "type": "Point", "coordinates": [ -122.5735643, 45.5087228 ] } },
{ "type": "Feature", "id": 57, "properties": { "MLS#": 14462057, "Type": "RES", "Address": "3210 SE RISLEY AVE", "Area": 145, "List Agent": "Douglas Deines", "List Date": "04\/29\/14", "Status": "SLD", "Price Current": "$200,000", "Status Date": "06\/04\/14", "Exp Date": null, "Selling Agent": "Margaret Gerlt", "AddressFull": "3210 SE RISLEY AVE near Portland, OR", "lon": -122.6296572, "lat": 45.4107861 }, "geometry": { "type": "Point", "coordinates": [ -122.6296572, 45.4107861 ] } },
{ "type": "Feature", "id": 58, "properties": { "MLS#": 14011914, "Type": "RES", "Address": "325 NE GRAHAM ST", "Area": 142, "List Agent": "Jerry Wallach", "List Date": "01\/28\/14", "Status": "SLD", "Price Current": "$330,000", "Status Date": "06\/20\/14", "Exp Date": null, "Selling Agent": "Margaret Gerlt", "AddressFull": "325 NE GRAHAM ST near Portland, OR", "lon": -122.6619459, "lat": 45.5430023 }, "geometry": { "type": "Point", "coordinates": [ -122.6619459, 45.5430023 ] } },
{ "type": "Feature", "id": 59, "properties": { "MLS#": 14374216, "Type": "RES", "Address": "3945 SE 34TH AVE", "Area": 143, "List Agent": "Julie Broderick", "List Date": "05\/02\/14", "Status": "SLD", "Price Current": "$247,000", "Status Date": "06\/27\/14", "Exp Date": null, "Selling Agent": "Margaret Gerlt", "AddressFull": "3945 SE 34TH AVE near Portland, OR", "lon": -122.6300308, "lat": 45.4940843 }, "geometry": { "type": "Point", "coordinates": [ -122.6300308, 45.4940843 ] } },
{ "type": "Feature", "id": 60, "properties": { "MLS#": 14294901, "Type": "RES", "Address": "2604  GLEN HAVEN RD", "Area": 147, "List Agent": "Dave Saxe", "List Date": "06\/19\/14", "Status": "SLD", "Price Current": "$339,500", "Status Date": "08\/01\/14", "Exp Date": null, "Selling Agent": "Margaret Gerlt", "AddressFull": "2604  GLEN HAVEN RD near Portland, OR", "lon": -122.7028343, "lat": 45.4033117 }, "geometry": { "type": "Point", "coordinates": [ -122.7028343, 45.4033117 ] } },
{ "type": "Feature", "id": 61, "properties": { "MLS#": 14480389, "Type": "RES", "Address": "7008 NE GOING ST", "Area": 142, "List Agent": "Milan Cole", "List Date": "07\/07\/14", "Status": "SLD", "Price Current": "$257,000", "Status Date": "08\/11\/14", "Exp Date": null, "Selling Agent": "Margaret Gerlt", "AddressFull": "7008 NE GOING ST near Portland, OR", "lon": -122.5909013, "lat": 45.5566209 }, "geometry": { "type": "Point", "coordinates": [ -122.5909013, 45.5566209 ] } },
{ "type": "Feature", "id": 62, "properties": { "MLS#": 14439739, "Type": "RES", "Address": "4703 NW SEBLAR TER", "Area": 148, "List Agent": "Lonnie Knodel", "List Date": "07\/14\/14", "Status": "SLD", "Price Current": "$865,000", "Status Date": "09\/09\/14", "Exp Date": null, "Selling Agent": "Margaret Gerlt", "AddressFull": "4703 NW SEBLAR TER near Portland, OR", "lon": -122.7248527, "lat": 45.5221278 }, "geometry": { "type": "Point", "coordinates": [ -122.7248527, 45.5221278 ] } },
{ "type": "Feature", "id": 63, "properties": { "MLS#": 14521100, "Type": "RES", "Address": "126 NE FARGO ST", "Area": 142, "List Agent": "Linda Skeele", "List Date": "08\/18\/14", "Status": "SLD", "Price Current": "$550,000", "Status Date": "10\/01\/14", "Exp Date": null, "Selling Agent": "Margaret Gerlt", "AddressFull": "126 NE FARGO ST near Portland, OR", "lon": -122.6634748, "lat": 45.5458858 }, "geometry": { "type": "Point", "coordinates": [ -122.6634748, 45.5458858 ] } },
{ "type": "Feature", "id": 64, "properties": { "MLS#": 14355173, "Type": "RES", "Address": "1905 SE 42ND AVE", "Area": 143, "List Agent": "Dennis Shepard", "List Date": "07\/28\/14", "Status": "SLD", "Price Current": "$425,000", "Status Date": "10\/11\/14", "Exp Date": null, "Selling Agent": "Margaret Gerlt", "AddressFull": "1905 SE 42ND AVE near Portland, OR", "lon": -122.619512, "lat": 45.509407 }, "geometry": { "type": "Point", "coordinates": [ -122.619512, 45.509407 ] } },
{ "type": "Feature", "id": 65, "properties": { "MLS#": 15691799, "Type": "RES", "Address": "3325 SE LAKE RD", "Area": 145, "List Agent": "Corie Gosse", "List Date": "01\/10\/15", "Status": "SLD", "Price Current": "$255,000", "Status Date": "03\/26\/15", "Exp Date": null, "Selling Agent": "Margaret Gerlt", "AddressFull": "3325 SE LAKE RD near Portland, OR", "lon": -122.629531, "lat": 45.436551 }, "geometry": { "type": "Point", "coordinates": [ -122.629531, 45.436551 ] } },
{ "type": "Feature", "id": 66, "properties": { "MLS#": 15579360, "Type": "RES", "Address": "3305 SE 58TH AVE", "Area": 143, "List Agent": "Blake Vigna", "List Date": "03\/09\/15", "Status": "SLD", "Price Current": "$335,000", "Status Date": "04\/16\/15", "Exp Date": null, "Selling Agent": "Margaret Gerlt", "AddressFull": "3305 SE 58TH AVE near Portland, OR", "lon": -122.6033129, "lat": 45.4987643 }, "geometry": { "type": "Point", "coordinates": [ -122.6033129, 45.4987643 ] } },
{ "type": "Feature", "id": 67, "properties": { "MLS#": 15342916, "Type": "RES", "Address": "9102 N ALLEGHENY AVE", "Area": 141, "List Agent": "Barbara Covert", "List Date": "04\/15\/15", "Status": "SLD", "Price Current": "$265,000", "Status Date": "05\/29\/15", "Exp Date": null, "Selling Agent": "Margaret Gerlt", "AddressFull": "9102 N ALLEGHENY AVE near Portland, OR", "lon": -122.7454961, "lat": 45.5922075 }, "geometry": { "type": "Point", "coordinates": [ -122.7454961, 45.5922075 ] } },
{ "type": "Feature", "id": 68, "properties": { "MLS#": 15358642, "Type": "RES", "Address": "4621 NE KILLINGSWORTH ST", "Area": 142, "List Agent": "Deborah Ham", "List Date": "01\/16\/15", "Status": "SLD", "Price Current": "$295,000", "Status Date": "06\/16\/15", "Exp Date": null, "Selling Agent": "Margaret Gerlt", "AddressFull": "4621 NE KILLINGSWORTH ST near Portland, OR", "lon": -122.6147983, "lat": 45.5631902 }, "geometry": { "type": "Point", "coordinates": [ -122.6147983, 45.5631902 ] } },
{ "type": "Feature", "id": 69, "properties": { "MLS#": 15254839, "Type": "RES", "Address": "1222 SE 87TH AVE", "Area": 143, "List Agent": "Stacey Pearo", "List Date": "05\/01\/15", "Status": "SLD", "Price Current": "$240,000", "Status Date": "06\/23\/15", "Exp Date": null, "Selling Agent": "Margaret Gerlt", "AddressFull": "1222 SE 87TH AVE near Portland, OR", "lon": -122.573841, "lat": 45.5138887 }, "geometry": { "type": "Point", "coordinates": [ -122.573841, 45.5138887 ] } },
{ "type": "Feature", "id": 70, "properties": { "MLS#": 15400199, "Type": "RES", "Address": "1835 SE ELLIS ST", "Area": 143, "List Agent": "Gina Welch", "List Date": "05\/01\/15", "Status": "SLD", "Price Current": "$350,000", "Status Date": "07\/02\/15", "Exp Date": null, "Selling Agent": "Margaret Gerlt", "AddressFull": "1835 SE ELLIS ST near Portland, OR", "lon": -122.6467236, "lat": 45.4825233 }, "geometry": { "type": "Point", "coordinates": [ -122.6467236, 45.4825233 ] } },
{ "type": "Feature", "id": 71, "properties": { "MLS#": 15073190, "Type": "RES", "Address": "8325 SE RAMONA ST", "Area": 143, "List Agent": "Bruce Kennen", "List Date": "05\/22\/15", "Status": "SLD", "Price Current": "$190,000", "Status Date": "07\/28\/15", "Exp Date": null, "Selling Agent": "Margaret Gerlt", "AddressFull": "8325 SE RAMONA ST near Portland, OR", "lon": -122.5771764, "lat": 45.4807455 }, "geometry": { "type": "Point", "coordinates": [ -122.5771764, 45.4807455 ] } },
{ "type": "Feature", "id": 72, "properties": { "MLS#": 15327113, "Type": "RES", "Address": "7430 SE LONG ST", "Area": 143, "List Agent": "Connie McDowell", "List Date": "05\/20\/15", "Status": "SLD", "Price Current": "$269,000", "Status Date": "07\/31\/15", "Exp Date": null, "Selling Agent": "Margaret Gerlt", "AddressFull": "7430 SE LONG ST near Portland, OR", "lon": -122.5864904, "lat": 45.4886109 }, "geometry": { "type": "Point", "coordinates": [ -122.5864904, 45.4886109 ] } },
{ "type": "Feature", "id": 73, "properties": { "MLS#": 15107070, "Type": "RES", "Address": "8581 SE 57th", "Area": 143, "List Agent": "Rick Clark", "List Date": "03\/11\/15", "Status": "SLD", "Price Current": "$439,900", "Status Date": "08\/26\/15", "Exp Date": null, "Selling Agent": "Margaret Gerlt", "AddressFull": "8581 SE 57th near Portland, OR", "lon": -122.605354, "lat": 45.4605279 }, "geometry": { "type": "Point", "coordinates": [ -122.605354, 45.4605279 ] } },
{ "type": "Feature", "id": 74, "properties": { "MLS#": 15124121, "Type": "RES", "Address": "2027 NE 51ST AVE", "Area": 142, "List Agent": "Ida Wells", "List Date": "07\/17\/15", "Status": "SLD", "Price Current": "$395,000", "Status Date": "10\/30\/15", "Exp Date": null, "Selling Agent": "Margaret Gerlt", "AddressFull": "2027 NE 51ST AVE near Portland, OR", "lon": -122.6111739, "lat": 45.5374717 }, "geometry": { "type": "Point", "coordinates": [ -122.6111739, 45.5374717 ] } },
{ "type": "Feature", "id": 75, "properties": { "MLS#": 15314040, "Type": "RES", "Address": "4628 NE 26TH AVE", "Area": 142, "List Agent": "Susie Hunt Moran", "List Date": "11\/05\/15", "Status": "SLD", "Price Current": "$445,000", "Status Date": "11\/24\/15", "Exp Date": null, "Selling Agent": "Margaret Gerlt", "AddressFull": "4628 NE 26TH AVE near Portland, OR", "lon": -122.6386944, "lat": 45.5567891 }, "geometry": { "type": "Point", "coordinates": [ -122.6386944, 45.5567891 ] } },
{ "type": "Feature", "id": 76, "properties": { "MLS#": 15052552, "Type": "RES", "Address": "10811 SE STEVENS WAY", "Area": 145, "List Agent": "Tony Ngo", "List Date": "09\/25\/15", "Status": "SLD", "Price Current": "$425,000", "Status Date": "12\/23\/15", "Exp Date": null, "Selling Agent": "Margaret Gerlt", "AddressFull": "10811 SE STEVENS WAY near Portland, OR", "lon": -122.5643624, "lat": 45.444641 }, "geometry": { "type": "Point", "coordinates": [ -122.5643624, 45.444641 ] } },
{ "type": "Feature", "id": 77, "properties": { "MLS#": 15165139, "Type": "RES", "Address": "4245 SE TAYLOR ST", "Area": 143, "List Agent": "Dawn Workman", "List Date": "12\/11\/15", "Status": "SLD", "Price Current": "$565,000", "Status Date": "03\/08\/16", "Exp Date": null, "Selling Agent": "Margaret Gerlt", "AddressFull": "4245 SE TAYLOR ST near Portland, OR", "lon": -122.6184366, "lat": 45.515096 }, "geometry": { "type": "Point", "coordinates": [ -122.6184366, 45.515096 ] } },
{ "type": "Feature", "id": 78, "properties": { "MLS#": 16122984, "Type": "RES", "Address": "19552  MORRIE DR", "Area": 146, "List Agent": "Heather Wright", "List Date": "05\/05\/16", "Status": "SLD", "Price Current": "$364,000", "Status Date": "06\/24\/16", "Exp Date": null, "Selling Agent": "Margaret Gerlt", "AddressFull": "19552  MORRIE DR near Portland, OR", "lon": -122.6007826, "lat": 45.3227116 }, "geometry": { "type": "Point", "coordinates": [ -122.6007826, 45.3227116 ] } },
{ "type": "Feature", "id": 79, "properties": { "MLS#": 16636386, "Type": "RES", "Address": "6909 SE MARTINS ST", "Area": 143, "List Agent": "Mark Charlesworth", "List Date": "09\/09\/16", "Status": "SLD", "Price Current": "$393,000", "Status Date": "10\/20\/16", "Exp Date": null, "Selling Agent": "Margaret Gerlt", "AddressFull": "6909 SE MARTINS ST near Portland, OR", "lon": -122.5915099, "lat": 45.4791181 }, "geometry": { "type": "Point", "coordinates": [ -122.5915099, 45.4791181 ] } }
]
}
